[
    {
        "_id": "632f90a0cbf6d4abb8d3b375",
        "name": "Catholic Charities of Dallas",
        "description": "CCD helps over 275,000 individuals achieve stability and self-sufficiency through financial literacy, employment services, education, food programs, immigration legal services, refugee resettlement, disaster services, and permanent supportive housing.",
        "address": "1421 W Mockingbird Ln.\nDallas TX 75247",
        "latitude": 32.82287,
        "longitude": -96.86319,
        "phoneNumber": "214-634-7182",
        "website": "www.ccdallas.org",
        "inclusions": ["SIJS", "Bond Hearings", "Asylum"],
        "exclusions": [],
        "schedule": ["11111"],
        "notes": [],
        "state": "Texas"
    },
    {
        "_id": "632fa409d428b00ab94f6d0a",
        "name": "Light of Hope Immigration Law Center",
        "description": "We also provide pro bono support to the community. Our free citizenship classes this spring provided 85 hours of instruction to 21 students, 4 of whom became naturalized citizens.",
        "address": "1339 19th St\nPlano,TX 75074",
        "latitude": 33.02629,
        "longitude": -96.69518,
        "phoneNumber": "469-229-0590",
        "website": "www.lohimmigration.org",
        "inclusions": ["Spanish", "Juveniles"],
        "exclusions": ["Drugs", "sexual abuse", "child abuse"],
        "schedule": ["31111"],
        "notes": [""],
        "state": "Texas"
    },
    {
        "_id": "632fa411d428b00ab94f6d0b",
        "name": "Human Rights Initiative of North Texas",
        "description": "Free legal services to Asylum seekers fleeing persecution based on religion, race, ethnicity, political opinion, or membership in a particular social group,Immigrants abused by a U.S. Citizen or Lawful Permanent Resident (Green Card holder) spouse, Immigrant children who are victims of violent crimes, neglect, abuse, or abandonment.\n",
        "address": "2801 Swiss Avenue\nDallas, Tx 75204",
        "latitude": 32.7882749,
        "longitude": -96.7867089,
        "phoneNumber": "214-855-0520",
        "website": "www.hrionline.com",
        "inclusions": ["Asylum", "Spanish", "juvenile"],
        "exclusions": [],
        "schedule": ["51111"],
        "notes": ["Must make appointment"],
        "state": "Texas"
    },
    {
        "_id": "632fa419d428b00ab94f6d0c",
        "name": "International Rescue Committee",
        "description": "We help to restore health, safety, education, economic wellbeing and power to people devastated by conflict and disaster.",
        "address": "6500 Greenville Ave., Suite 500\nDallas, TX 75206",
        "latitude": 32.820946,
        "longitude": -96.770152,
        "phoneNumber": "214-461-9781",
        "website": "www.recue.org",
        "inclusions": ["Removal defense", "juvenile"],
        "exclusions": [],
        "schedule": ["61010"],
        "notes": [""],
        "state": "Texas"
    },
    {
        "_id": "632fa41cd428b00ab94f6d0d",
        "name": "RAICES",
        "description": "Refugee and Immigration Center for Education and Legal Services",
        "address": "4230 Lyndon B Johnson Fwy, Suite 225\nDallas, TX 75244",
        "latitude": 32.9244199,
        "longitude": -96.8362204,
        "phoneNumber": "214-919-0736",
        "website": "www.raicestexas.org",
        "inclusions": ["All"],
        "exclusions": [],
        "schedule": ["21001"],
        "notes": ["Will take cases from all Detention and Enforcement Centers"],
        "state": "Texas"
    },
    {
        "_id": "632fa436d428b00ab94f6d13",
        "name": "University of Texas School of Law Immigration Clinic",
        "description": "Students in the Immigration Clinic represent vulnerable low-income immigrants from all over the world before the immigration and federal courts and the Department of Homeland Security (DHS).",
        "address": "727 East Dean Keeton Street\nAustin, TX 78705-3299",
        "latitude": 30.2885423,
        "longitude": -97.7308013,
        "phoneNumber": "512-232-1292",
        "website": "www.law.utexas.edu/clinics/immigration",
        "inclusions": ["Asylum"],
        "exclusions": [],
        "schedule": ["61111"],
        "notes": [""],
        "state": "Texas"
    },
    {
        "_id": "632fa43ad428b00ab94f6d14",
        "name": "South Texas Immigration Council, Inc",
        "description": "The South Texas Immigration Council, Inc. (Harlingen Office) offers a wide range of legal immigration services to the immigrant population of Rio Grande Valley and the surrounding areas.",
        "address": "4793 West Expressway 83\nHarlingen, TX 78552",
        "latitude": 26.1861114,
        "longitude": -97.7301226,
        "phoneNumber": "956-425-6987",
        "website": "https://www.southtexasimmigrationcouncil.com/services",
        "inclusions": ["Spanish"],
        "exclusions": [],
        "schedule": ["51111"],
        "notes": [""],
        "state": "Texas"
    },
    {
        "_id": "632fa43ed428b00ab94f6d15",
        "name": "ProBAR - South Texas Pro Bono Asylum Representation Project",
        "description": "The South Texas Pro Bono Asylum Representation Project (ProBAR) empowers immigrants through high-quality legal education, representation, and connections to services",
        "address": "202 South 1st Street, Suite 300 \nHarlingen, TX 78550",
        "latitude": 26.1913003,
        "longitude": -97.6957328,
        "phoneNumber": "956-365-3775",
        "website": "www.americanbar.org/probar",
        "inclusions": ["Asylum"],
        "exclusions": [],
        "schedule": ["40101"],
        "notes": [""],
        "state": "Texas"
    },
    {
        "_id": "632fa442d428b00ab94f6d16",
        "name": "Texas RioGrande Legal Aid",
        "description": "TRLA serves the people of Texas to ensure that a fair chance at justice is never out of reach for those who need it most.",
        "address": "316 S. Closner Blvd.\nEdinburg, TX 78539",
        "latitude": 26.2646554,
        "longitude": -98.1726523,
        "phoneNumber": "956-393-6200",
        "website": "www.trla.org",
        "inclusions": [""],
        "exclusions": [],
        "schedule": ["31010"],
        "notes": [""],
        "state": "Texas"
    },
    {
        "_id": "632fa445d428b00ab94f6d17",
        "name": "American Gateways",
        "description": "To champion the dignity and human rights of immigrants, refugees and survivors of persecution, torture, conflict and human trafficking through exceptional immigration legal services at no or low cost, education and advocacy.",
        "address": "314 E. Highland Mall Blvd., Suite 501\nAustin, TX 78752",
        "latitude": 30.328724,
        "longitude": -97.711395,
        "phoneNumber": "(512) 478-0546",
        "website": "www.americangateways.org",
        "inclusions": [""],
        "exclusions": [],
        "schedule": ["01111"],
        "notes": [""],
        "state": "Texas"
    },
    {
        "_id": "632fa449d428b00ab94f6d18",
        "name": "Kids in Need of Defense (KIND)",
        "description": "Advancing laws, policies, and practices that ensure children’s protection and uphold their right to due process and fundamental fairness and promoting in countries of origin, transit, and destination durable solutions to child migration that are grounded in the best interests of the child and ensure that no child is forced to involuntarily migrate.",
        "address": "1303 San Jacinto Street, 9th Floor\nHouston, TX 77002",
        "latitude": 29.7534991,
        "longitude": -95.3649746,
        "phoneNumber": "832-779-4030",
        "website": "www.supportkind.org",
        "inclusions": ["Juvenile"],
        "exclusions": [],
        "schedule": ["61010"],
        "notes": [""],
        "state": "Texas"
    },
    {
        "_id": "632fa44dd428b00ab94f6d19",
        "name": "Catholic Charities of the Archdiocese of Galveston-Houston",
        "description": "Guided by God’s love, Catholic Charities helps people in southeast Texas by providing caring, compassionate services and advocating for social justice in collaboration with parishes and communities.",
        "address": "2900 Louisiana St\nHouston, TX 77006",
        "latitude": 29.745023,
        "longitude": -95.378312,
        "phoneNumber": "713-595-4100",
        "website": "www.catholiccharities.org",
        "inclusions": ["Juvenile", "Asylum", "Spanish"],
        "exclusions": [],
        "schedule": ["1111", "01111"],
        "notes": [""],
        "state": "Texas"
    },
    {
        "_id": "632fa45ed428b00ab94f6d1b",
        "name": "Diocesan Migrant and Refugee Services",
        "description": "A ministry of the Catholic Diocese of El Paso, Diocesan Migrant and Refugee Services, Inc. (DMRS) is the only full-service immigration legal aid clinic serving low-income immigrants and refugees residing in the southwestern United States.",
        "address": "2400 E. Yandell, Ste. A\nEl Paso, TX 79903-3617",
        "latitude": 31.77855,
        "longitude": -106.46671,
        "phoneNumber": "915-532-3975",
        "website": "www.dmrs-ep.org",
        "inclusions": [""],
        "exclusions": [],
        "schedule": ["21100"],
        "notes": [""],
        "state": "Texas"
    },
    {
        "_id": "632fa464d428b00ab94f6d1d",
        "name": "Las Americas Immigrant Advocacy Center",
        "description": "Las Americas is a 501(c)(3) nonprofit organization based in El Paso, Texas providing free and low-cost legal services to immigrants and refugees in West Texas and New Mexico. We have served over 40,000 people from over 77 countries since 1987. ",
        "address": "1500 E Yandell Drive\nEl Paso, TX 79902",
        "latitude": 31.77135,
        "longitude": -106.47783,
        "phoneNumber": "915-544-5126",
        "website": "www.las-americas.org",
        "inclusions": [
            "Asylum",
            "Withholding of Removal",
            "Convention Against Torture"
        ],
        "exclusions": [],
        "schedule": ["1111"],
        "notes": [""],
        "state": "Texas"
    },
    {
        "_id": "632fb31cf0b56585f428b2bd",
        "name": "Dallas Bar Association ",
        "description": "The DBA's purpose is to serve and support the legal profession in Dallas and to promote good relations among lawyers, judges, and the community. ",
        "address": "2101 Ross Avenue\nDallas, TX 75201",
        "latitude": 32.78735,
        "longitude": -96.79872,
        "phoneNumber": "214-224-7476",
        "website": "www.dallasbar.org",
        "inclusions": [""],
        "exclusions": [],
        "schedule": ["11111", "22222"],
        "notes": [""],
        "state": "Texas"
    }
]
